ts_utc,city,lat,lon,temp_c,feelslike_c,condition_text,humidity,wind_kph,wind_dir,pressure_mb,precip_mm,cloud,uv,is_day
2026-07-01T02:01:09Z,Chennai,13.0833,80.2833,30.2,32.8,Partly cloudy,70,23.0,W,1005.0,0.0,50,0.8,1
2026-07-01T02:01:09Z,Mumbai,18.975,72.826,27.3,32.2,Light rain,89,29.5,WSW,1003.0,2.58,100,0.1,1
2026-07-01T02:01:10Z,Delhi,42.85,-80.5,28.1,31.8,Sunny,71,18.4,SW,1013.0,0.0,0,0.0,0
2026-07-01T02:01:10Z,Bengaluru,12.9833,77.5833,21.2,21.2,Partly cloudy,88,26.6,W,1013.0,0.02,75,0.7,1
2026-07-01T02:01:10Z,Kolkata,22.5697,88.3697,27.2,33.9,Mist,100,14.0,SW,1001.0,0.1,75,1.1,1
2026-07-01T02:01:11Z,Hyderabad,17.3753,78.4744,25.4,27.8,Mist,79,26.6,W,1008.0,0.02,100,0.8,1
2026-07-01T02:01:11Z,Pune,18.5333,73.8667,23.2,16.1,Light rain shower,91,15.8,W,1007.0,0.81,100,0.1,1
2026-07-01T02:01:11Z,Ahmedabad,23.0333,72.6167,29.2,32.2,Mist,66,17.6,W,1001.0,0.0,50,0.7,1
